% program   : RTKLIB ver.2.4.2
% inp file  : ./rover/rover.obs
% inp file  : ./base/base.nav
% inp file  : ./base/base.obs
% obs start : 2016/04/18 14:08:21.0 GPST (week1893 137301.0s)
% obs end   : 2016/04/18 15:07:13.0 GPST (week1893 140833.0s)
% pos mode  : kinematic
% freqs     : L1
% solution  : combined
% elev mask : 10.0 deg
% dynamics  : off
% tidecorr  : off
% ionos opt : broadcast
% tropo opt : saastamoinen
% ephemeris : broadcast
% amb res   : fix and hold
% val thres : 3.0
% antenna1  :                       ( 0.0000  0.0000  0.0000)
% antenna2  :                       ( 0.0000  0.0000  0.0000)
% ref pos   : 53.923577675  37.002453261  261.0647
%
% (lat/lon/height=WGS84/ellipsoidal,Q=1:fix,2:float,3:sbas,4:dgps,5:single,6:ppp,ns=# of satellites)
%  GPST                  latitude(deg) longitude(deg)  height(m)   Q  ns   sdn(m)   sde(m)   sdu(m)  sdne(m)  sdeu(m)  sdun(m) age(s)  ratio
2016/04/18 14:08:21.000   54.050442567   37.546079895   261.4735   1   9   0.0076   0.0051   0.0142   0.0026   0.0014   0.0057   0.00    3.2
2016/04/18 14:08:23.000   54.050408914   37.546087938   264.7548   2   9   0.0258   0.0210   0.0383   0.0110  -0.0093  -0.0073   0.00    2.7
2016/04/18 14:08:24.000   54.050408952   37.546087925   264.7630   2   9   0.0258   0.0210   0.0384   0.0110  -0.0092  -0.0072   0.00    2.9
2016/04/18 14:08:25.000   54.050408953   37.546087952   264.7645   2   9   0.0258   0.0210   0.0384   0.0110  -0.0092  -0.0070   0.00    2.9
2016/04/18 14:08:26.000   54.050442585   37.546079876   261.4741   1   9   0.0076   0.0052   0.0142   0.0027   0.0014   0.0056   0.00    3.1
2016/04/18 14:08:27.000   54.050442597   37.546079876   261.4764   1   9   0.0076   0.0051   0.0142   0.0026   0.0012   0.0056   0.00    3.2
2016/04/18 14:08:28.000   54.050442588   37.546079877   261.4732   1   9   0.0076   0.0051   0.0142   0.0027   0.0016   0.0057   0.00    3.3
2016/04/18 14:08:29.000   54.050442579   37.546079848   261.4733   1   9   0.0076   0.0051   0.0142   0.0028   0.0016   0.0056   0.00    3.3
2016/04/18 14:08:30.000   54.050442589   37.546079874   261.4746   1   9   0.0075   0.0051   0.0142   0.0026   0.0013   0.0057   0.00    3.2
2016/04/18 14:08:31.000   54.050442593   37.546079855   261.4767   1   9   0.0076   0.0048   0.0143   0.0023   0.0016   0.0056   0.00    3.4
2016/04/18 14:08:32.000   54.050442580   37.546079852   261.4762   1   9   0.0076   0.0051   0.0142   0.0025   0.0014   0.0057   0.00    3.4
2016/04/18 14:08:33.000   54.050442593   37.546079881   261.4782   1   9   0.0075   0.0053   0.0142   0.0028   0.0013   0.0057   0.00    3.3
2016/04/18 14:08:34.000   54.050442571   37.546079872   261.4770   1   9   0.0075   0.0050   0.0142   0.0026   0.0015   0.0057   0.00    3.2
2016/04/18 14:08:35.000   54.050442578   37.546079853   261.4783   1   9   0.0077   0.0051   0.0142   0.0028   0.0015   0.0057   0.00    3.2
2016/04/18 14:08:36.000   54.050442585   37.546079875   261.4797   1   9   0.0076   0.0051   0.0142   0.0024   0.0015   0.0056   0.00  166.0
2016/04/18 14:08:37.000   54.050442583   37.546079858   261.4807   1   9   0.0075   0.0051   0.0142   0.0023   0.0016   0.0057   0.00  242.1
2016/04/18 14:08:38.000   54.050442582   37.546079872   261.4777   1   9   0.0076   0.0052   0.0142   0.0026   0.0014   0.0057   0.00  316.5
2016/04/18 14:08:39.000   54.050442579   37.546079886   261.4794   1   9   0.0076   0.0050   0.0143   0.0025   0.0013   0.0056   0.00  382.9
2016/04/18 14:08:40.000   54.050442567   37.546079874   261.4787   1   9   0.0075   0.0051   0.0143   0.0027   0.0013   0.0056   0.00  441.1
2016/04/18 14:08:41.000   54.050442597   37.546079906   261.4829   1   9   0.0076   0.0054   0.0142   0.0028   0.0011   0.0057   0.00  484.8
2016/04/18 14:08:42.000   54.050442602   37.546079899   261.4822   1   9   0.0075   0.0050   0.0142   0.0026   0.0014   0.0056   0.00  527.2
2016/04/18 14:08:43.000   54.050442594   37.546079895   261.4821   1   9   0.0074   0.0050   0.0143   0.0024   0.0012   0.0057   0.00  549.0
2016/04/18 14:08:44.000   54.050442591   37.546079886   261.4784   1   9   0.0077   0.0049   0.0142   0.0024   0.0019   0.0056   0.00  582.7
2016/04/18 14:08:45.000   54.050442593   37.546079917   261.4829   1   9   0.0076   0.0050   0.0142   0.0028   0.0012   0.0056   0.00  606.0
2016/04/18 14:08:46.000   54.050442601   37.546079880   261.4827   1   9   0.0076   0.0052   0.0142   0.0029   0.0016   0.0057   0.00  641.4
2016/04/18 14:08:47.000   54.050442606   37.546079895   261.4805   1   9   0.0076   0.0051   0.0143   0.0025   0.0012   0.0056   0.00  664.1
2016/04/18 14:08:48.000   54.050442601   37.546079888   261.4802   1   9   0.0075   0.0049   0.0142   0.0025   0.0015   0.0056   0.00  691.3
2016/04/18 14:08:49.000   54.050442607   37.546079904   261.4830   1   9   0.0076   0.0053   0.0143   0.0027   0.0012   0.0056   0.00  712.7
2016/04/18 14:08:50.000   54.050442606   37.546079898   261.4804   1   9   0.0074   0.0052   0.0142   0.0028   0.0015   0.0058   0.00  732.7
2016/04/18 14:08:51.000   54.050442619   37.546079888   261.4806   1   9   0.0075   0.0051   0.0143   0.0025   0.0014   0.0056   0.00  751.9
2016/04/18 14:08:52.000   54.050442593   37.546079877   261.4791   1   9   0.0076   0.0051   0.0142   0.0028   0.0013   0.0057   0.00  775.3
2016/04/18 14:08:53.000   54.050442605   37.546079868   261.4815   1   9   0.0075   0.0052   0.0142   0.0026   0.0015   0.0057   0.00  798.2
2016/04/18 14:08:54.000   54.050442611   37.546079859   261.4808   1   9   0.0076   0.0051   0.0143   0.0027   0.0013   0.0056   0.00  818.4
2016/04/18 14:08:55.000   54.050442612   37.546079868   261.4818   1   9   0.0075   0.0052   0.0142   0.0025   0.0015   0.0058   0.00  841.9
2016/04/18 14:08:56.000   54.050442627   37.546079862   261.4833   1   9   0.0076   0.0051   0.0142   0.0026   0.0014   0.0057   0.00  867.1
2016/04/18 14:08:57.000   54.050442614   37.546079881   261.4819   1   9   0.0076   0.0053   0.0142   0.0028   0.0017   0.0057   0.00  874.7
2016/04/18 14:08:58.000   54.050442627   37.546079868   261.4829   1   9   0.0074   0.0051   0.0143   0.0023   0.0014   0.0056   0.00  902.2
2016/04/18 14:08:59.000   54.050442617   37.546079869   261.4828   1   9   0.0075   0.0051   0.0143   0.0021   0.0015   0.0056   0.00  919.8
2016/04/18 14:09:00.000   54.050442603   37.546079863   261.4818   1   9   0.0075   0.0052   0.0142   0.0023   0.0015   0.0056   0.00  938.6
2016/04/18 14:09:01.000   54.050442617   37.546079896   261.4802   1   9   0.0075   0.0052   0.0142   0.0023   0.0016   0.0057   0.00  958.4
2016/04/18 14:09:02.000   54.050442617   37.546079881   261.4815   1   9   0.0077   0.0052   0.0142   0.0028   0.0016   0.0056   0.00  967.1
2016/04/18 14:09:03.000   54.050442616   37.546079900   261.4808   1   9   0.0074   0.0049   0.0143   0.0025   0.0013   0.0057   0.00  971.8
2016/04/18 14:09:04.000   54.050442618   37.546079888   261.4783   1   9   0.0075   0.0050   0.0142   0.0027   0.0014   0.0057   0.00  979.9
2016/04/18 14:09:05.000   54.050442618   37.546079874   261.4754   1   9   0.0074   0.0052   0.0142   0.0028   0.0013   0.0057   0.00  992.2
2016/04/18 14:09:06.000   54.050442615   37.546079864   261.4773   1   9   0.0074   0.0052   0.0143   0.0025   0.0012   0.0057   0.00  999.9
2016/04/18 14:09:07.000   54.050442610   37.546079880   261.4741   1   9   0.0075   0.0052   0.0142   0.0025   0.0016   0.0057   0.00  999.9
2016/04/18 14:09:08.000   54.050442614   37.546079868   261.4756   1   9   0.0074   0.0051   0.0143   0.0026   0.0015   0.0057   0.00  999.9
2016/04/18 14:09:09.000   54.050442615   37.546079864   261.4760   1   9   0.0075   0.0052   0.0143   0.0027   0.0009   0.0056   0.00  999.9
2016/04/18 14:09:10.000   54.050442608   37.546079875   261.4735   1   9   0.0075   0.0051   0.0143   0.0027   0.0011   0.0056   0.00  999.9
2016/04/18 14:09:11.000   54.050442615   37.546079890   261.4742   1   9   0.0076   0.0052   0.0143   0.0023   0.0015   0.0056   0.00  999.9
2016/04/18 14:09:12.000   54.050442617   37.546079876   261.4731   1   9   0.0075   0.0051   0.0143   0.0028   0.0011   0.0056   0.00  999.9
2016/04/18 14:09:13.000   54.050442618   37.546079880   261.4755   1   9   0.0076   0.0050   0.0142   0.0027   0.0016   0.0057   0.00  999.9
2016/04/18 14:09:14.000   54.050442600   37.546079861   261.4704   1   9   0.0074   0.0050   0.0143   0.0023   0.0013   0.0056   0.00  999.9
2016/04/18 14:09:15.000   54.050442620   37.546079859   261.4728   1   9   0.0076   0.0051   0.0142   0.0029   0.0016   0.0057   0.00  999.9
2016/04/18 14:09:16.000   54.050442609   37.546079852   261.4713   1   9   0.0076   0.0051   0.0143   0.0026   0.0012   0.0056   0.00  999.9
2016/04/18 14:09:17.000   54.050442597   37.546079866   261.4704   1   9   0.0075   0.0050   0.0143   0.0023   0.0015   0.0056   0.00  999.9
2016/04/18 14:09:18.000   54.050442596   37.546079859   261.4697   1   9   0.0075   0.0052   0.0142   0.0027   0.0015   0.0058   0.00  999.9
2016/04/18 14:09:19.000   54.050442584   37.546079856   261.4674   1   9   0.0076   0.0052   0.0143   0.0026   0.0012   0.0056   0.00  999.9
2016/04/18 14:09:20.000   54.050442577   37.546079845   261.4676   1   9   0.0074   0.0050   0.0142   0.0028   0.0014   0.0057   0.00  999.9
2016/04/18 14:09:21.000   54.050442578   37.546079848   261.4696   1   9   0.0076   0.0051   0.0143   0.0024   0.0017   0.0056   0.00  999.9
2016/04/18 14:09:22.000   54.050442579   37.546079830   261.4690   1   9   0.0075   0.0052   0.0143   0.0023   0.0015   0.0057   0.00  999.9
2016/04/18 14:09:23.000   54.050442577   37.546079853   261.4697   1   9   0.0075   0.0051   0.0143   0.0026   0.0014   0.0057   0.00  999.9
2016/04/18 14:09:24.000   54.050442577   37.546079843   261.4657   1   9   0.0075   0.0051   0.0143   0.0023   0.0013   0.0056   0.00  999.9
2016/04/18 14:09:25.000   54.050442571   37.546079832   261.4662   1   9   0.0074   0.0052   0.0143   0.0022   0.0015   0.0056   0.00  999.9
2016/04/18 14:09:26.000   54.050442579   37.546079827   261.4658   1   9   0.0077   0.0052   0.0143   0.0026   0.0016   0.0056   0.00  999.9
2016/04/18 14:09:27.000   54.050442575   37.546079828   261.4639   1   9   0.0075   0.0049   0.0143   0.0024   0.0015   0.0056   0.00  999.9
2016/04/18 14:09:28.000   54.050442580   37.546079840   261.4613   1   9   0.0075   0.0051   0.0142   0.0025   0.0017   0.0057   0.00  999.9
2016/04/18 14:09:29.000   54.050442587   37.546079839   261.4659   1   9   0.0073   0.0052   0.0143   0.0027   0.0009   0.0057   0.00  999.9
2016/04/18 14:09:30.000   54.050442579   37.546079865   261.4618   1   9   0.0075   0.0050   0.0143   0.0024   0.0017   0.0057   0.00  999.9
2016/04/18 14:09:31.000   54.050442583   37.546079849   261.4637   1   9   0.0075   0.0052   0.0142   0.0029   0.0016   0.0058   0.00  999.9
2016/04/18 14:09:32.000   54.050442581   37.546079828   261.4618   1   9   0.0077   0.0052   0.0143   0.0025   0.0011   0.0055   0.00  999.9
2016/04/18 14:09:33.000   54.050442599   37.546079854   261.4626   1   9   0.0075   0.0051   0.0143   0.0024   0.0014   0.0056   0.00  999.9
2016/04/18 14:09:34.000   54.050442594   37.546079848   261.4613   1   9   0.0075   0.0051   0.0143   0.0026   0.0016   0.0057   0.00  999.9
2016/04/18 14:09:35.000   54.050442605   37.546079843   261.4622   1   9   0.0075   0.0050   0.0143   0.0027   0.0016   0.0057   0.00  999.9
2016/04/18 14:09:36.000   54.050442604   37.546079840   261.4615   1   9   0.0075   0.0051   0.0143   0.0027   0.0017   0.0057   0.00  999.9
2016/04/18 14:09:37.000   54.050442597   37.546079840   261.4624   1   9   0.0076   0.0051   0.0143   0.0027   0.0010   0.0056   0.00  999.9
2016/04/18 14:09:38.000   54.050442601   37.546079854   261.4584   1   9   0.0075   0.0052   0.0143   0.0024   0.0014   0.0057   0.00  999.9
2016/04/18 14:09:39.000   54.050442596   37.546079853   261.4609   1   9   0.0074   0.0051   0.0143   0.0026   0.0015   0.0057   0.00  999.9
2016/04/18 14:09:40.000   54.050442619   37.546079855   261.4613   1   9   0.0075   0.0051   0.0143   0.0027   0.0013   0.0057   0.00  999.9
2016/04/18 14:09:41.000   54.050442625   37.546079846   261.4602   1   9   0.0074   0.0049   0.0143   0.0025   0.0013   0.0057   0.00  999.9
2016/04/18 14:09:42.000   54.050442613   37.546079836   261.4616   1   9   0.0076   0.0051   0.0143   0.0027   0.0016   0.0057   0.00  999.9
2016/04/18 14:09:43.000   54.050442629   37.546079863   261.4608   1   9   0.0075   0.0050   0.0143   0.0024   0.0015   0.0056   0.00  999.9
2016/04/18 14:09:44.000   54.050442627   37.546079857   261.4594   1   9   0.0076   0.0050   0.0143   0.0025   0.0017   0.0056   0.00  999.9
2016/04/18 14:09:45.000   54.050442632   37.546079851   261.4632   1   9   0.0075   0.0050   0.0143   0.0023   0.0013   0.0056   0.00  999.9
2016/04/18 14:09:46.000   54.050442643   37.546079838   261.4682   1   9   0.0076   0.0051   0.0143   0.0024   0.0016   0.0056   0.00  999.9
2016/04/18 14:09:47.000   54.050442628   37.546079852   261.4644   1   9   0.0077   0.0051   0.0143   0.0030   0.0015   0.0056   0.00  999.9
2016/04/18 14:09:48.000   54.050442626   37.546079858   261.4637   1   9   0.0074   0.0051   0.0143   0.0025   0.0013   0.0057   0.00  999.9
2016/04/18 14:09:49.000   54.050442645   37.546079881   261.4659   1   9   0.0076   0.0052   0.0143   0.0028   0.0013   0.0056   0.00  999.9
2016/04/18 14:09:50.000   54.050442646   37.546079875   261.4658   1   9   0.0075   0.0051   0.0143   0.0025   0.0014   0.0057   0.00  999.9
2016/04/18 14:09:51.000   54.050442648   37.546079885   261.4668   1   9   0.0075   0.0052   0.0143   0.0028   0.0011   0.0057   0.00  999.9
2016/04/18 14:09:52.000   54.050442641   37.546079849   261.4692   1   9   0.0075   0.0049   0.0143   0.0026   0.0013   0.0057   0.00  999.9
2016/04/18 14:09:53.000   54.050442653   37.546079883   261.4698   1   9   0.0074   0.0052   0.0143   0.0026   0.0008   0.0057   0.00  999.9
2016/04/18 14:09:54.000   54.050442653   37.546079879   261.4710   1   9   0.0077   0.0050   0.0143   0.0026   0.0014   0.0056   0.00  999.9
2016/04/18 14:09:56.000   54.050442649   37.546079859   261.4724   1   9   0.0075   0.0050   0.0143   0.0023   0.0015   0.0056   0.00  999.9
2016/04/18 14:09:57.000   54.050442632   37.546079849   261.4700   1   9   0.0076   0.0052   0.0143   0.0025   0.0014   0.0056   0.00  999.9
2016/04/18 14:09:58.000   54.050442647   37.546079855   261.4748   1   9   0.0076   0.0053   0.0143   0.0026   0.0014   0.0056   0.00  999.9
2016/04/18 14:09:59.000   54.050442644   37.546079852   261.4703   1   9   0.0074   0.0050   0.0142   0.0026   0.0017   0.0057   0.00  999.9
2016/04/18 14:10:00.000   54.050442642   37.546079860   261.4662   1   9   0.0076   0.0050   0.0143   0.0025   0.0016   0.0056   0.00  999.9
2016/04/18 14:10:01.000   54.050442631   37.546079846   261.4677   1   9   0.0076   0.0051   0.0143   0.0025   0.0015   0.0056   0.00  999.9
2016/04/18 14:10:02.000   54.050442625   37.546079842   261.4661   1   9   0.0075   0.0052   0.0143   0.0027   0.0014   0.0057   0.00  999.9
2016/04/18 14:10:03.000   54.050442635   37.546079834   261.4691   1   9   0.0074   0.0050   0.0143   0.0029   0.0014   0.0057   0.00  999.9
2016/04/18 14:10:04.000   54.050442629   37.546079845   261.4682   1   9   0.0076   0.0051   0.0143   0.0026   0.0015   0.0056   0.00  999.9
2016/04/18 14:10:05.000   54.050442622   37.546079813   261.4708   1   9   0.0074   0.0052   0.0143   0.0026   0.0013   0.0057   0.00  999.9
2016/04/18 14:10:06.000   54.050442630   37.546079808   261.4682   1   9   0.0076   0.0051   0.0143   0.0026   0.0015   0.0057   0.00  999.9
2016/04/18 14:10:07.000   54.050442631   37.546079819   261.4636   1   9   0.0075   0.0051   0.0143   0.0026   0.0012   0.0055   0.00  999.9
2016/04/18 14:10:08.000   54.050442645   37.546079841   261.4672   1   9   0.0073   0.0051   0.0143   0.0024   0.0014   0.0057   0.00  999.9
2016/04/18 14:10:09.000   54.050442659   37.546079824   261.4692   1   9   0.0075   0.0053   0.0143   0.0026   0.0013   0.0056   0.00  999.9
2016/04/18 14:10:10.000   54.050442716   37.546079917   261.4678   1   9   0.0075   0.0051   0.0143   0.0027   0.0013   0.0057   0.00  999.9
2016/04/18 14:10:11.000   54.050444395   37.546081234   261.4704   1   9   0.0075   0.0053   0.0143   0.0024   0.0013   0.0057   0.00  999.9
2016/04/18 14:10:12.000   54.050450819   37.546086095   261.4811   1   9   0.0074   0.0049   0.0143   0.0024   0.0013   0.0057   0.00  999.9
2016/04/18 14:10:13.000   54.050463490   37.546095575   261.5047   1   9   0.0074   0.0050   0.0143   0.0025   0.0014   0.0057   0.00  999.9
2016/04/18 14:10:14.000   54.050482177   37.546107501   261.5255   1   9   0.0075   0.0051   0.0143   0.0026   0.0014   0.0057   0.00  999.9
2016/04/18 14:10:15.000   54.050506149   37.546114160   261.5642   1   9   0.0075   0.0051   0.0143   0.0026   0.0015   0.0057   0.00  999.9
2016/04/18 14:10:16.000   54.050529024   37.546102817   261.5803   1   9   0.0075   0.0053   0.0143   0.0026   0.0010   0.0056   0.00  999.9
2016/04/18 14:10:17.000   54.050543679   37.546076127   261.5638   1   9   0.0074   0.0052   0.0143   0.0025   0.0013   0.0057   0.00  999.9
2016/04/18 14:10:18.000   54.050550071   37.546045385   261.5839   1   9   0.0075   0.0049   0.0143   0.0025   0.0015   0.0056   0.00  999.9
2016/04/18 14:10:19.000   54.050551551   37.546019879   261.5906   1   9   0.0073   0.0053   0.0143   0.0027   0.0011   0.0057   0.00  999.9
2016/04/18 14:10:20.000   54.050551270   37.545999418   261.5848   1   9   0.0075   0.0049   0.0143   0.0028   0.0018   0.0057   0.00  999.9
2016/04/18 14:10:21.000   54.050550256   37.545980741   261.5847   1   9   0.0075   0.0054   0.0143   0.0022   0.0011   0.0057   0.00  999.9
2016/04/18 14:10:22.000   54.050548698   37.545963112   261.5702   1   9   0.0075   0.0052   0.0143   0.0023   0.0013   0.0057   0.00  999.9
2016/04/18 14:10:23.000   54.050546032   37.545942851   261.5565   1   9   0.0074   0.0048   0.0143   0.0027   0.0017   0.0057   0.00  999.9
2016/04/18 14:10:24.000   54.050541311   37.545916147   261.5499   1   9   0.0075   0.0053   0.0143   0.0024   0.0012   0.0057   0.00  999.9
2016/04/18 14:10:25.000   54.050533402   37.545884143   261.5460   1   9   0.0075   0.0049   0.0143   0.0026   0.0015   0.0055   0.00  999.9
2016/04/18 14:10:26.000   54.050522559   37.545850974   261.5623   1   9   0.0074   0.0053   0.0143   0.0024   0.0014   0.0057   0.00  999.9
2016/04/18 14:10:27.000   54.050508423   37.545818989   261.5662   1   9   0.0075   0.0054   0.0143   0.0024   0.0013   0.0057   0.00  999.9
2016/04/18 14:10:28.000   54.050491099   37.545789228   261.5862   1   9   0.0075   0.0050   0.0143   0.0027   0.0015   0.0056   0.00  999.9
2016/04/18 14:10:29.000   54.050470621   37.545762667   261.5943   1   9   0.0074   0.0049   0.0143   0.0025   0.0015   0.0057   0.00  999.9
2016/04/18 14:10:30.000   54.050447546   37.545738473   261.5948   1   9   0.0075   0.0052   0.0143   0.0026   0.0015   0.0057   0.00  999.9
2016/04/18 14:10:31.000   54.050422788   37.545715794   261.5731   1   9   0.0075   0.0051   0.0143   0.0026   0.0013   0.0057   0.00  999.9
2016/04/18 14:10:32.000   54.050397135   37.545691502   261.5801   1   9   0.0075   0.0049   0.0143   0.0026   0.0014   0.0056   0.00  999.9
2016/04/18 14:10:33.000   54.050370806   37.545665860   261.5975   1   9   0.0074   0.0050   0.0143   0.0027   0.0014   0.0057   0.00  999.9
2016/04/18 14:10:34.000   54.050344209   37.545638435   261.6175   1   9   0.0075   0.0053   0.0143   0.0026   0.0012   0.0056   0.00  999.9
2016/04/18 14:10:35.000   54.050316316   37.545608600   261.6611   1   9   0.0075   0.0051   0.0143   0.0025   0.0015   0.0056   0.00  999.9
2016/04/18 14:10:36.000   54.050285149   37.545574616   261.6754   1   9   0.0073   0.0047   0.0144   0.0027   0.0015   0.0056   0.00  999.9
2016/04/18 14:10:37.000   54.050251983   37.545536599   261.7154   1   9   0.0074   0.0052   0.0143   0.0027   0.0014   0.0056   0.00  999.9
2016/04/18 14:10:38.000   54.050218588   37.545495234   261.7619   1   9   0.0074   0.0051   0.0144   0.0025   0.0014   0.0057   0.00  999.9
2016/04/18 14:10:39.000   54.050187736   37.545453817   261.8298   1   9   0.0075   0.0051   0.0143   0.0026   0.0013   0.0057   0.00  999.9
2016/04/18 14:10:40.000   54.050160527   37.545413954   262.0201   1   9   0.0075   0.0053   0.0143   0.0027   0.0011   0.0056   0.00  999.9
2016/04/18 14:10:41.000   54.050135183   37.545376676   261.9849   1   9   0.0075   0.0050   0.0143   0.0028   0.0015   0.0056   0.00  999.9
2016/04/18 14:10:42.000   54.050112219   37.545342023   261.9094   1   8   0.0107   0.0048   0.0189   0.0020  -0.0018   0.0112   0.00  999.9
2016/04/18 14:10:43.000   54.050089559   37.545310632   262.2222   2   9   0.0099   0.0051   0.0174   0.0018  -0.0019   0.0101   0.00    2.4
2016/04/18 14:10:44.000   54.050069025   37.545278312   262.3780   2   9   0.0088   0.0052   0.0157   0.0023  -0.0012   0.0081   0.00    1.9
2016/04/18 14:10:45.000   54.050046597   37.545243899   262.5298   2   8   0.0085   0.0055   0.0158   0.0016   0.0024   0.0068   0.00    2.4
2016/04/18 14:10:46.000   54.050023248   37.545206085   262.4064   2   9   0.0081   0.0049   0.0149   0.0023   0.0007   0.0069   0.00    2.6
2016/04/18 14:10:47.000   54.049999344   37.545167378   262.1702   1   9   0.0083   0.0051   0.0153   0.0025   0.0010   0.0071   0.00  549.5
2016/04/18 14:10:48.000   54.049971916   37.545130300   262.4554   2   9   0.0078   0.0049   0.0146   0.0023   0.0013   0.0065   0.00    2.3
2016/04/18 14:10:49.000   54.049943782   37.545100523   264.1654   2   9   0.0106   0.0090   0.0322  -0.0013   0.0141   0.0093   0.00    2.1
2016/04/18 14:10:50.000   54.049923102   37.545056066   262.4890   1   9   0.0075   0.0051   0.0143   0.0024   0.0015   0.0057   0.00    3.4
2016/04/18 14:10:51.000   54.049900540   37.545020891   262.5984   1   9   0.0075   0.0054   0.0143   0.0026   0.0012   0.0056   0.00    4.4
2016/04/18 14:10:52.000   54.049878978   37.544986682   262.6415   1   9   0.0075   0.0049   0.0143   0.0027   0.0016   0.0056   0.00    5.4
2016/04/18 14:10:53.000   54.049857774   37.544952672   262.6803   1   9   0.0083   0.0063   0.0217   0.0024   0.0080   0.0070   0.00  999.9
2016/04/18 14:10:54.000   54.049837004   37.544919530   262.7083   1   9   0.0075   0.0050   0.0143   0.0029   0.0015   0.0056   0.00    7.5
2016/04/18 14:10:55.000   54.049817539   37.544888848   262.7594   1   9   0.0075   0.0051   0.0144   0.0025   0.0014   0.0056   0.00    8.3
2016/04/18 14:10:56.000   54.049796692   37.544856836   262.8383   1   9   0.0074   0.0053   0.0143   0.0027   0.0015   0.0057   0.00    9.2
2016/04/18 14:10:57.000   54.049774209   37.544821387   262.8702   1   9   0.0075   0.0052   0.0143   0.0028   0.0015   0.0056   0.00   10.1
2016/04/18 14:10:58.000   54.049749952   37.544783595   262.8901   1   9   0.0075   0.0050   0.0143   0.0024   0.0015   0.0057   0.00   11.0
2016/04/18 14:10:59.000   54.049724032   37.544743405   262.9431   1   9   0.0075   0.0050   0.0144   0.0025   0.0016   0.0056   0.00   11.9
2016/04/18 14:11:00.000   54.049697310   37.544702028   263.0237   1   9   0.0075   0.0049   0.0144   0.0027   0.0014   0.0057   0.00   39.8
2016/04/18 14:11:01.000   54.049670156   37.544660414   263.1148   1   9   0.0074   0.0053   0.0143   0.0025   0.0015   0.0057   0.00   58.1
2016/04/18 14:11:02.000   54.049640984   37.544616711   263.1871   1   9   0.0074   0.0050   0.0144   0.0025   0.0014   0.0057   0.00   76.8
2016/04/18 14:11:03.000   54.049607101   37.544571279   263.2115   1   9   0.0074   0.0046   0.0144   0.0028   0.0017   0.0056   0.00   95.4
2016/04/18 14:11:04.000   54.049565290   37.544522900   263.2807   1   9   0.0074   0.0049   0.0144   0.0028   0.0015   0.0056   0.00  115.2
2016/04/18 14:11:05.000   54.049520443   37.544479394   263.3542   1   9   0.0075   0.0050   0.0143   0.0026   0.0014   0.0056   0.00  133.8
2016/04/18 14:11:06.000   54.049473426   37.544439345   263.4737   1   9   0.0074   0.0051   0.0143   0.0027   0.0018   0.0056   0.00  153.4
2016/04/18 14:11:07.000   54.049418860   37.544398420   263.6088   1   9   0.0075   0.0054   0.0143   0.0025   0.0012   0.0056   0.00  173.7
2016/04/18 14:11:08.000   54.049356102   37.544353984   263.7381   1   9   0.0075   0.0051   0.0143   0.0024   0.0015   0.0056   0.00  193.3
2016/04/18 14:11:09.000   54.049285999   37.544305866   263.8729   1   9   0.0075   0.0048   0.0143   0.0029   0.0015   0.0056   0.00  213.5
2016/04/18 14:11:10.000   54.049214247   37.544258839   264.0114   1   9   0.0075   0.0050   0.0143   0.0024   0.0017   0.0057   0.00  233.4
2016/04/18 14:11:11.000   54.049144036   37.544213188   264.1433   1   9   0.0075   0.0053   0.0143   0.0023   0.0017   0.0057   0.00  253.0
2016/04/18 14:11:12.000   54.049075181   37.544168634   264.2560   1   9   0.0074   0.0050   0.0144   0.0025   0.0014   0.0057   0.00  272.3
2016/04/18 14:11:13.000   54.049007146   37.544122825   264.3543   1   9   0.0074   0.0052   0.0144   0.0027   0.0014   0.0056   0.00  291.0
2016/04/18 14:11:14.000   54.048937585   37.544073727   264.4353   1   9   0.0074   0.0052   0.0144   0.0026   0.0011   0.0056   0.00  311.6
2016/04/18 14:11:15.000   54.048865834   37.544023268   264.5255   1   9   0.0075   0.0053   0.0143   0.0028   0.0015   0.0056   0.00  331.7
2016/04/18 14:11:16.000   54.048792172   37.543971547   264.5621   1   9   0.0074   0.0052   0.0144   0.0026   0.0013   0.0057   0.00  350.6
2016/04/18 14:11:17.000   54.048714341   37.543919193   264.2635   1   9   0.0076   0.0054   0.0143   0.0027   0.0012   0.0056   0.00  408.0
2016/04/18 14:11:18.000   54.048635687   37.543868516   264.1885   1   9   0.0074   0.0051   0.0144   0.0024   0.0015   0.0056   0.00  349.1
2016/04/18 14:11:19.000   54.048554443   37.543815533   264.2154   2   9   0.0074   0.0057   0.0140   0.0017  -0.0022   0.0056   0.00    1.2
2016/04/18 14:11:20.000   54.048475642   37.543760181   264.3962   1   8   0.0081   0.0058   0.0149   0.0040  -0.0029   0.0044   0.00   13.5
2016/04/18 14:11:21.000   54.048393655   37.543708519   264.0221   1   8   0.0075   0.0056   0.0146   0.0014  -0.0022   0.0060   0.00  430.8
2016/04/18 14:11:22.000   54.048308853   37.543653826   263.6108   1   9   0.0074   0.0051   0.0144   0.0027   0.0013   0.0056   0.00    5.8
2016/04/18 14:11:23.000   54.048214640   37.543589454   264.0608   2   8   0.0078   0.0059   0.0144   0.0039  -0.0034   0.0041   0.00    1.8
2016/04/18 14:11:24.000   54.048127512   37.543549223   261.2289   1   7   0.0133   0.0063   0.0228  -0.0053  -0.0073   0.0151   0.00   28.3
2016/04/18 14:11:25.000   54.048051495   37.543490823   262.7644   2   9   0.0074   0.0057   0.0140   0.0017  -0.0020   0.0056   0.00    1.1
2016/04/18 14:11:26.000   54.047960759   37.543415300   264.1048   1   7   0.0081   0.0071   0.0155   0.0038  -0.0052   0.0045   0.00   16.3
2016/04/18 14:11:27.000   54.047881479   37.543377201   262.4236   2   9   0.0073   0.0055   0.0139   0.0022  -0.0011   0.0054   0.00    1.1
2016/04/18 14:11:28.000   54.047793486   37.543317888   262.1884   2   9   0.0073   0.0051   0.0138   0.0026  -0.0009   0.0053   0.00    1.1
2016/04/18 14:11:29.000   54.047697723   37.543244539   263.5175   2   8   0.0079   0.0060   0.0144   0.0038  -0.0034   0.0041   0.00    1.0
2016/04/18 14:11:30.000   54.047612608   37.543186691   263.4221   1   8   0.0081   0.0062   0.0150   0.0038  -0.0035   0.0044   0.00    4.6
2016/04/18 14:11:31.000   54.047535614   37.543143873   262.2017   2   9   0.0072   0.0054   0.0138   0.0023   0.0006   0.0054   0.00    1.1
2016/04/18 14:11:32.000   54.047443956   37.543087087   261.1185   2   8   0.0102   0.0050   0.0178   0.0010  -0.0026   0.0104   0.00    1.1
2016/04/18 14:11:33.000   54.047351931   37.543007768   263.5500   2   7   0.0079   0.0069   0.0148   0.0037  -0.0049   0.0042   0.00    2.4
2016/04/18 14:11:34.000   54.047269489   37.542967330   261.7609   2   9   0.0073   0.0050   0.0138   0.0025   0.0009   0.0053   0.00    1.1
2016/04/18 14:11:35.000   54.047165587   37.542890205   263.0672   2   8   0.0078   0.0059   0.0144   0.0038  -0.0032   0.0040   0.00    1.2
2016/04/18 14:11:36.000   54.047074045   37.542841633   260.7539   2   8   0.0102   0.0050   0.0178   0.0012  -0.0023   0.0104   0.00    1.0
2016/04/18 14:11:37.000   54.046973733   37.542785231   259.4799   2   8   0.0119   0.0061   0.0203  -0.0044  -0.0062   0.0130   0.00    1.0
2016/04/18 14:11:38.000   54.046892518   37.542717718   261.7487   2   9   0.0073   0.0055   0.0139   0.0021  -0.0015   0.0054   0.00    1.0
2016/04/18 14:11:39.000   54.046798956   37.542653600   261.8034   2   9   0.0072   0.0053   0.0139   0.0020   0.0001   0.0055   0.00    1.0
2016/04/18 14:11:40.000   54.046705777   37.542590386   261.8467   2   9   0.0073   0.0050   0.0139   0.0023   0.0007   0.0054   0.00    1.0
2016/04/18 14:11:41.000   54.046613713   37.542528466   261.9349   2   9   0.0072   0.0054   0.0138   0.0024   0.0010   0.0054   0.00    1.0
2016/04/18 14:11:42.000   54.046522523   37.542468130   262.0549   2   9   0.0072   0.0052   0.0138   0.0025   0.0004   0.0053   0.00    1.0
2016/04/18 14:11:43.000   54.046421166   37.542384818   263.9375   2   8   0.0120   0.0081   0.0235  -0.0050  -0.0100   0.0135   0.00    1.0
2016/04/18 14:11:44.000   54.046331404   37.542323642   264.1535   2   9   0.0075   0.0063   0.0145   0.0032  -0.0038   0.0048   0.00    1.0
2016/04/18 14:11:45.000   54.046242005   37.542264178   264.1109   2   9   0.0074   0.0058   0.0142   0.0029  -0.0027   0.0049   0.00    1.0
2016/04/18 14:11:46.000   54.046155869   37.542207151   264.0274   2   9   0.0074   0.0056   0.0141   0.0030  -0.0024   0.0050   0.00    1.0
2016/04/18 14:11:47.000   54.046072518   37.542151730   264.0069   2   9   0.0074   0.0056   0.0140   0.0030  -0.0018   0.0050   0.00    1.1
2016/04/18 14:11:48.000   54.045992115   37.542096185   263.9768   2   9   0.0073   0.0054   0.0140   0.0027  -0.0016   0.0051   0.00    1.0
2016/04/18 14:11:49.000   54.045912611   37.542043041   263.9231   2   9   0.0084   0.0064   0.0164  -0.0023   0.0038  -0.0019   0.00    1.0
2016/04/18 14:11:50.000   54.045839461   37.541992789   263.8550   2   9   0.0079   0.0059   0.0153   0.0010   0.0027   0.0031   0.00    1.0
2016/04/18 14:11:51.000   54.045774744   37.541948144   263.7068   2   9   0.0077   0.0056   0.0150   0.0019   0.0021   0.0038   0.00    1.0
2016/04/18 14:11:52.000   54.045719967   37.541910888   263.6925   2   9   0.0076   0.0053   0.0147   0.0021   0.0021   0.0040   0.00    1.0
2016/04/18 14:11:53.000   54.045674016   37.541880007   263.7208   2   9   0.0076   0.0052   0.0146   0.0023   0.0018   0.0043   0.00    1.0
2016/04/18 14:11:54.000   54.045629805   37.541850742   263.7287   2   9   0.0075   0.0053   0.0145   0.0023   0.0017   0.0044   0.00    1.0
2016/04/18 14:11:55.000   54.045586948   37.541822436   263.7037   2   9   0.0081   0.0059   0.0150   0.0036  -0.0028   0.0029   0.00    1.0
2016/04/18 14:11:56.000   54.045549434   37.541797786   263.5576   2   9   0.0078   0.0058   0.0146   0.0031  -0.0017   0.0039   0.00    1.0
2016/04/18 14:11:57.000   54.045515672   37.541774246   263.5405   2   9   0.0076   0.0055   0.0146   0.0028  -0.0013   0.0042   0.00    1.0
2016/04/18 14:11:58.000   54.045482219   37.541750557   263.5409   2   8   0.0080   0.0057   0.0148   0.0038  -0.0027   0.0033   0.00    1.0
2016/04/18 14:11:59.000   54.045452160   37.541731271   263.3394   2   9   0.0076   0.0054   0.0144   0.0029  -0.0009   0.0044   0.00    1.0
2016/04/18 14:12:00.000   54.045419449   37.541709746   263.3036   2   9   0.0075   0.0053   0.0144   0.0025  -0.0003   0.0046   0.00    1.0
2016/04/18 14:12:01.000   54.045383335   37.541685488   263.4357   2   9   0.0076   0.0052   0.0143   0.0029   0.0007   0.0046   0.00    1.0
2016/04/18 14:12:02.000   54.045345130   37.541660134   263.3446   2   9   0.0074   0.0057   0.0143   0.0025  -0.0003   0.0047   0.00    1.0
2016/04/18 14:12:03.000   54.045303382   37.541631686   263.3437   2   9   0.0075   0.0056   0.0143   0.0026   0.0006   0.0048   0.00    1.0
2016/04/18 14:12:04.000   54.045259007   37.541601305   263.2995   2   9   0.0075   0.0050   0.0143   0.0027   0.0009   0.0047   0.00    1.0
2016/04/18 14:12:05.000   54.045211286   37.541567769   263.3070   2   9   0.0074   0.0050   0.0142   0.0027   0.0010   0.0048   0.00    1.0
2016/04/18 14:12:06.000   54.045158007   37.541529087   263.6957   2   8   0.0079   0.0057   0.0147   0.0038  -0.0028   0.0036   0.00    1.0
2016/04/18 14:12:07.000   54.045104776   37.541491263   263.6895   2   9   0.0151   0.0252   0.0254   0.0140  -0.0179   0.0097   0.00    1.0
2016/04/18 14:12:08.000   54.045051435   37.541454722   263.7600   2   9   0.0118   0.0162   0.0202   0.0091  -0.0111   0.0083   0.00    1.0
2016/04/18 14:12:09.000   54.044997333   37.541417804   263.7908   2   9   0.0108   0.0149   0.0189   0.0084  -0.0103   0.0070   0.00    1.0
2016/04/18 14:12:10.000   54.044942896   37.541380236   263.8191   2   9   0.0103   0.0139   0.0182   0.0079  -0.0097   0.0062   0.00    1.0
2016/04/18 14:12:11.000   54.044889827   37.541343703   263.8234   2   9   0.0099   0.0132   0.0176   0.0076  -0.0092   0.0057   0.00    1.1
2016/04/18 14:12:12.000   54.044838898   37.541309107   263.7607   2   9   0.0096   0.0127   0.0173   0.0073  -0.0088   0.0053   0.00    1.0
2016/04/18 14:12:13.000   54.044790907   37.541277344   263.7273   2   9   0.0096   0.0132   0.0180   0.0078  -0.0066   0.0062   0.00    1.1
2016/04/18 14:12:14.000   54.044744399   37.541246990   263.7403   2   9   0.0095   0.0130   0.0173   0.0078  -0.0068   0.0059   0.00    1.1
2016/04/18 14:12:15.000   54.044697127   37.541215565   263.7282   2   9   0.0095   0.0129   0.0170   0.0078  -0.0067   0.0057   0.00    1.0
2016/04/18 14:12:16.000   54.044649038   37.541183237   263.7215   2   9   0.0094   0.0129   0.0168   0.0079  -0.0066   0.0055   0.00    1.0
2016/04/18 14:12:17.000   54.044602405   37.541151480   263.7203   2   9   0.0094   0.0128   0.0166   0.0080  -0.0065   0.0054   0.00    1.2
2016/04/18 14:12:18.000   54.044561107   37.541123785   263.7220   2   9   0.0094   0.0128   0.0165   0.0080  -0.0063   0.0054   0.00    1.0
2016/04/18 14:12:19.000   54.044524226   37.541099649   263.8190   2   9   0.0096   0.0127   0.0172   0.0079  -0.0058   0.0040   0.00    1.0
2016/04/18 14:12:20.000   54.044488871   37.541076689   263.7741   2   9   0.0096   0.0127   0.0169   0.0079  -0.0060   0.0045   0.00    1.0
2016/04/18 14:12:21.000   54.044453050   37.541053918   263.6715   2   9   0.0094   0.0128   0.0167   0.0080  -0.0060   0.0047   0.00    1.0
2016/04/18 14:12:22.000   54.044415486   37.541029739   263.6868   2   9   0.0095   0.0127   0.0166   0.0080  -0.0059   0.0046   0.00    1.0
2016/04/18 14:12:23.000   54.044373807   37.541001629   263.7152   2   9   0.0095   0.0127   0.0165   0.0081  -0.0059   0.0046   0.00    1.0
2016/04/18 14:12:24.000   54.044323246   37.540967647   263.8306   2   9   0.0094   0.0127   0.0165   0.0081  -0.0059   0.0046   0.00    1.1
2016/04/18 14:12:25.000   54.044261947   37.540927569   263.3354   2   8   0.0158   0.0269   0.0261   0.0154  -0.0180   0.0095   0.00    1.0
2016/04/18 14:12:26.000   54.044197509   37.540883524   263.3015   2   9   0.0120   0.0132   0.0197   0.0081  -0.0050   0.0101   0.00    1.0
2016/04/18 14:12:27.000   54.044099185   37.540841878   265.1457   1   9   0.0105   0.0058   0.0170   0.0046   0.0034   0.0075   0.00   15.6
2016/04/18 14:12:28.000   54.044067773   37.540793727   263.1697   2   9   0.0108   0.0129   0.0180   0.0083  -0.0049   0.0080   0.00    1.1
2016/04/18 14:12:29.000   54.043999605   37.540747749   263.1601   2   9   0.0106   0.0128   0.0177   0.0084  -0.0048   0.0074   0.00    1.1
2016/04/18 14:12:30.000   54.043927591   37.540700359   263.1232   2   9   0.0104   0.0127   0.0174   0.0085  -0.0047   0.0071   0.00    1.2
2016/04/18 14:12:31.000   54.043846077   37.540647511   263.1772   2   9   0.0166   0.0138   0.0239   0.0106  -0.0020   0.0094   0.00    1.0
2016/04/18 14:12:32.000   54.043764953   37.540591360   263.1135   2   9   0.0134   0.0132   0.0206   0.0095  -0.0045   0.0069   0.00    1.1
2016/04/18 14:12:33.000   54.043678046   37.540531396   262.9512   2   9   0.0123   0.0131   0.0195   0.0093  -0.0049   0.0060   0.00    1.1
2016/04/18 14:12:34.000   54.043586678   37.540469055   262.8047   2   9   0.0117   0.0131   0.0189   0.0091  -0.0051   0.0054   0.00    1.1
2016/04/18 14:12:35.000   54.043493263   37.540405642   262.6234   2   9   0.0113   0.0130   0.0185   0.0090  -0.0052   0.0051   0.00    1.2
2016/04/18 14:12:36.000   54.043396944   37.540340486   262.5859   2   7   0.0115   0.0131   0.0196   0.0087  -0.0038  -0.0007   0.00    1.0
2016/04/18 14:12:37.000   54.043298457   37.540271322   262.2380   2   9   0.0108   0.0130   0.0180   0.0089  -0.0053   0.0045   0.00    1.1
2016/04/18 14:12:38.000   54.043195485   37.540200489   262.0469   2   9   0.0107   0.0130   0.0179   0.0089  -0.0053   0.0043   0.00    1.0
2016/04/18 14:12:39.000   54.043091153   37.540128816   261.8350   2   9   0.0105   0.0130   0.0178   0.0089  -0.0054   0.0041   0.00    1.1
2016/04/18 14:12:40.000   54.042986301   37.540057480   261.6211   2   9   0.0104   0.0130   0.0177   0.0088  -0.0054   0.0041   0.00    1.1
2016/04/18 14:12:41.000   54.042880676   37.539985689   261.3365   2   9   0.0103   0.0130   0.0176   0.0088  -0.0055   0.0041   0.00    1.1
2016/04/18 14:12:42.000   54.042773953   37.539913687   261.0878   2   9   0.0101   0.0129   0.0175   0.0089  -0.0054   0.0040   0.00    1.1
2016/04/18 14:12:43.000   54.042665760   37.539841598   261.0040   2   9   0.0107   0.0131   0.0191   0.0085  -0.0038  -0.0034   0.00    1.0
2016/04/18 14:12:44.000   54.042557704   37.539767808   260.7629   2   8   0.0104   0.0130   0.0184   0.0086  -0.0046  -0.0014   0.00    1.1
2016/04/18 14:12:45.000   54.042448665   37.539692299   260.4016   2   8   0.0104   0.0130   0.0184   0.0086  -0.0046  -0.0015   0.00    1.1
2016/04/18 14:12:46.000   54.042339442   37.539618033   260.1664   2   9   0.0100   0.0129   0.0178   0.0087  -0.0052   0.0027   0.00    1.0
2016/04/18 14:12:47.000   54.042230211   37.539543266   259.8642   2   8   0.0102   0.0130   0.0180   0.0086  -0.0049   0.0013   0.00    1.0
2016/04/18 14:12:48.000   54.042120873   37.539469948   259.7973   2   9   0.0100   0.0130   0.0176   0.0087  -0.0054   0.0031   0.00    1.0
2016/04/18 14:12:49.000   54.042008614   37.539404795   261.1353   2   7   0.0106   0.0134   0.0190   0.0081  -0.0042  -0.0035   0.00    1.0
2016/04/18 14:12:50.000   54.041870706   37.539334289   263.0144   1   5   0.0113   0.0108   0.0399  -0.0010   0.0182   0.0107   0.00    5.6
2016/04/18 14:12:51.000   54.041795724   37.539257458   260.9398   2   9   0.0099   0.0130   0.0175   0.0087  -0.0056   0.0031   0.00    1.1
2016/04/18 14:12:52.000   54.041688603   37.539185161   260.9441   2   9   0.0099   0.0130   0.0174   0.0086  -0.0056   0.0033   0.00    1.0
2016/04/18 14:12:53.000   54.041583432   37.539113946   260.8752   2   9   0.0099   0.0130   0.0174   0.0087  -0.0056   0.0033   0.00    2.0
2016/04/18 14:12:54.000   54.041480738   37.539043955   260.7997   2   9   0.0099   0.0130   0.0173   0.0087  -0.0056   0.0032   0.00    1.0
2016/04/18 14:12:55.000   54.041376938   37.538975204   260.9703   2   9   0.0099   0.0131   0.0178   0.0086  -0.0053   0.0017   0.00    1.1
2016/04/18 14:12:56.000   54.041276547   37.538903887   260.9543   2   9   0.0099   0.0130   0.0175   0.0087  -0.0055   0.0026   0.00    1.0
2016/04/18 14:12:57.000   54.041141745   37.538835197   261.6963   1   7   0.0097   0.0068   0.0221  -0.0030   0.0074   0.0062   0.00    3.3
2016/04/18 14:12:58.000   54.041073954   37.538765345   260.7157   2   8   0.0100   0.0131   0.0180   0.0085  -0.0050  -0.0010   0.00    1.0
2016/04/18 14:12:59.000   54.040974755   37.538695799   260.2840   2   9   0.0099   0.0130   0.0174   0.0087  -0.0056   0.0030   0.00    1.2
2016/04/18 14:13:00.000   54.040874798   37.538628274   260.2772   2   9   0.0097   0.0130   0.0174   0.0088  -0.0056   0.0032   0.00    1.0
2016/04/18 14:13:01.000   54.040771806   37.538562329   259.7992   2   9   0.0137   0.0137   0.0264   0.0076  -0.0046   0.0124   0.00    1.0
2016/04/18 14:13:02.000   54.040675431   37.538496805   259.6354   2   9   0.0118   0.0133   0.0224   0.0081  -0.0050   0.0088   0.00    1.0
2016/04/18 14:13:03.000   54.040581965   37.538433811   259.4828   2   9   0.0111   0.0132   0.0213   0.0083  -0.0050   0.0074   0.00    1.0
2016/04/18 14:13:04.000   54.040491224   37.538372826   259.3505   2   9   0.0107   0.0132   0.0206   0.0084  -0.0050   0.0066   0.00    1.0
2016/04/18 14:13:05.000   54.040402613   37.538313274   259.2262   2   9   0.0105   0.0132   0.0202   0.0085  -0.0051   0.0060   0.00    1.2
2016/04/18 14:13:06.000   54.040318956   37.538256253   259.1350   2   9   0.0103   0.0132   0.0199   0.0085  -0.0051   0.0056   0.00    1.1
2016/04/18 14:13:07.000   54.040242155   37.538204947   259.5087   2   9   0.0115   0.0133   0.0237   0.0084  -0.0042  -0.0065   0.00    1.0
2016/04/18 14:13:08.000   54.040177789   37.538161638   259.4386   2   9   0.0108   0.0133   0.0224   0.0084  -0.0045  -0.0038   0.00    1.1
2016/04/18 14:13:09.000   54.040122033   37.538123891   259.3398   2   9   0.0104   0.0132   0.0221   0.0084  -0.0046  -0.0026   0.00    1.1
2016/04/18 14:13:10.000   54.040070918   37.538089527   259.2895   2   9   0.0102   0.0132   0.0219   0.0085  -0.0046  -0.0015   0.00    1.2
2016/04/18 14:13:11.000   54.040024527   37.538058754   259.2641   2   9   0.0102   0.0132   0.0218   0.0085  -0.0047  -0.0004   0.00    1.1
2016/04/18 14:13:12.000   54.039983621   37.538031320   259.2364   2   9   0.0100   0.0132   0.0217   0.0085  -0.0046   0.0011   0.00    1.0
2016/04/18 14:13:13.000   54.039949056   37.538008044   259.2630   2   9   0.0100   0.0132   0.0216   0.0084  -0.0046   0.0016   0.00    1.1
2016/04/18 14:13:14.000   54.039916695   37.537986090   259.2264   2   9   0.0099   0.0131   0.0216   0.0085  -0.0046   0.0016   0.00    1.1
2016/04/18 14:13:15.000   54.039885021   37.537964460   259.2155   2   9   0.0099   0.0131   0.0215   0.0085  -0.0046   0.0018   0.00    1.1
2016/04/18 14:13:16.000   54.039852616   37.537942357   259.2499   2   9   0.0098   0.0131   0.0215   0.0086  -0.0046   0.0019   0.00    1.1
2016/04/18 14:13:17.000   54.039817595   37.537918692   259.2942   2   9   0.0098   0.0131   0.0215   0.0085  -0.0046   0.0021   0.00    1.1
2016/04/18 14:13:18.000   54.039781877   37.537894512   259.2126   2   9   0.0098   0.0131   0.0215   0.0086  -0.0046   0.0022   0.00    1.1
2016/04/18 14:13:19.000   54.039747359   37.537870926   259.0930   2   9   0.0117   0.0131   0.0235   0.0084  -0.0052   0.0081   0.00    1.1
2016/04/18 14:13:20.000   54.039723350   37.537853651   259.0853   2   9   0.0107   0.0131   0.0224   0.0085  -0.0049   0.0058   0.00    1.1
2016/04/18 14:13:21.000   54.039712317   37.537845679   259.1126   2   9   0.0104   0.0131   0.0221   0.0085  -0.0048   0.0048   0.00    1.1
2016/04/18 14:13:22.000   54.039707516   37.537842265   259.0964   2   9   0.0101   0.0131   0.0219   0.0085  -0.0048   0.0043   0.00    1.1
2016/04/18 14:13:23.000   54.039707402   37.537842082   259.1082   2   9   0.0100   0.0131   0.0218   0.0086  -0.0047   0.0040   0.00    1.1
2016/04/18 14:13:24.000   54.039707592   37.537842003   259.1312   2   9   0.0099   0.0130   0.0218   0.0086  -0.0047   0.0037   0.00    1.2
2016/04/18 14:13:25.000   54.039706450   37.537842552   259.0787   2   9   0.0118   0.0132   0.0238   0.0083  -0.0047   0.0078   0.00    1.0
2016/04/18 14:13:26.000   54.039706923   37.537842427   259.0881   2   9   0.0107   0.0131   0.0225   0.0085  -0.0047   0.0056   0.00    1.0
2016/04/18 14:13:27.000   54.039707189   37.537842333   259.1198   2   9   0.0103   0.0131   0.0221   0.0085  -0.0047   0.0047   0.00    1.0
2016/04/18 14:13:28.000   54.039707313   37.537842334   259.1215   2   9   0.0102   0.0131   0.0219   0.0085  -0.0047   0.0042   0.00    1.0
2016/04/18 14:13:29.000   54.039707345   37.537842300   259.1246   2   9   0.0100   0.0131   0.0218   0.0086  -0.0047   0.0039   0.00    1.0
2016/04/18 14:13:30.000   54.039706868   37.537841972   259.1258   2   9   0.0099   0.0131   0.0217   0.0085  -0.0047   0.0037   0.00    1.0
2016/04/18 14:13:31.000   54.039704135   37.537839713   259.1913   2   9   0.0098   0.0131   0.0217   0.0086  -0.0047   0.0034   0.00    1.0
2016/04/18 14:13:32.000   54.039695053   37.537833217   259.1795   2   9   0.0097   0.0131   0.0216   0.0086  -0.0047   0.0033   0.00    1.0
2016/04/18 14:13:33.000   54.039677992   37.537821467   259.1622   2   9   0.0097   0.0131   0.0216   0.0086  -0.0047   0.0031   0.00    1.0
2016/04/18 14:13:34.000   54.039654857   37.537805455   259.1511   2   9   0.0097   0.0131   0.0216   0.0086  -0.0047   0.0030   0.00    1.0
2016/04/18 14:13:35.000   54.039631728   37.537790100   259.1415   2   9   0.0097   0.0132   0.0216   0.0086  -0.0047   0.0030   0.00    1.0
2016/04/18 14:13:36.000   54.039610182   37.537776199   259.1313   2   9   0.0097   0.0131   0.0216   0.0086  -0.0047   0.0030   0.00    1.0
2016/04/18 14:13:37.000   54.039585897   37.537762773   258.8544   2   9   0.0132   0.0134   0.0250   0.0073  -0.0072   0.0110   0.00    1.0
2016/04/18 14:13:38.000   54.039558192   37.537745500   258.7765   2   9   0.0115   0.0133   0.0230   0.0080  -0.0059   0.0077   0.00    1.1
2016/04/18 14:13:39.000   54.039527395   37.537726568   258.8147   2   9   0.0109   0.0132   0.0225   0.0082  -0.0055   0.0065   0.00    1.1
2016/04/18 14:13:40.000   54.039497105   37.537708732   258.8440   2   9   0.0105   0.0132   0.0222   0.0083  -0.0053   0.0057   0.00    1.2
2016/04/18 14:13:41.000   54.039466836   37.537690851   258.8719   2   9   0.0103   0.0131   0.0220   0.0084  -0.0052   0.0052   0.00    1.5
2016/04/18 14:13:42.000   54.039436698   37.537672729   258.8916   2   9   0.0102   0.0132   0.0219   0.0084  -0.0051   0.0047   0.00    1.3
2016/04/18 14:13:43.000   54.039407526   37.537654701   258.9773   2   9   0.0103   0.0133   0.0222   0.0087  -0.0058   0.0033   0.00    1.1
2016/04/18 14:13:44.000   54.039383902   37.537640435   258.9951   2   9   0.0100   0.0132   0.0220   0.0086  -0.0054   0.0037   0.00    1.2
2016/04/18 14:13:45.000   54.039367683   37.537631270   258.9971   2   9   0.0099   0.0132   0.0219   0.0086  -0.0053   0.0037   0.00    1.2
2016/04/18 14:13:46.000   54.039360350   37.537627566   259.0117   2   9   0.0098   0.0131   0.0218   0.0086  -0.0052   0.0036   0.00    1.2
2016/04/18 14:13:47.000   54.039358603   37.537626804   259.0009   2   9   0.0098   0.0131   0.0218   0.0086  -0.0051   0.0035   0.00    1.1
2016/04/18 14:13:48.000   54.039358430   37.537626810   259.0058   2   9   0.0098   0.0132   0.0218   0.0085  -0.0051   0.0034   0.00    1.3
2016/04/18 14:13:49.000   54.039358577   37.537626769   259.0120   2   9   0.0097   0.0131   0.0217   0.0086  -0.0050   0.0033   0.00    1.3
2016/04/18 14:13:50.000   54.039358576   37.537626760   259.0097   2   9   0.0096   0.0132   0.0217   0.0086  -0.0051   0.0033   0.00    1.3
2016/04/18 14:13:51.000   54.039358428   37.537626723   259.0195   2   9   0.0097   0.0131   0.0217   0.0086  -0.0050   0.0032   0.00    1.3
2016/04/18 14:13:52.000   54.039356526   37.537626009   259.0198   2   9   0.0096   0.0132   0.0217   0.0085  -0.0049   0.0032   0.00    1.3
2016/04/18 14:13:53.000   54.039350790   37.537623182   259.0155   2   9   0.0097   0.0132   0.0216   0.0086  -0.0049   0.0031   0.00    1.3
2016/04/18 14:13:54.000   54.039339890   37.537617315   259.0317   2   9   0.0096   0.0131   0.0216   0.0086  -0.0049   0.0031   0.00    1.3
2016/04/18 14:13:55.000   54.039321193   37.537606134   259.0583   2   9   0.0096   0.0131   0.0216   0.0086  -0.0048   0.0029   0.00    1.3
2016/04/18 14:13:56.000   54.039295959   37.537590227   259.0575   2   9   0.0095   0.0131   0.0216   0.0085  -0.0048   0.0031   0.00    1.3
2016/04/18 14:13:57.000   54.039267759   37.537571595   259.1004   2   9   0.0095   0.0131   0.0216   0.0086  -0.0048   0.0029   0.00    1.3
2016/04/18 14:13:58.000   54.039241578   37.537553880   259.1175   2   9   0.0096   0.0131   0.0216   0.0086  -0.0048   0.0029   0.00    1.2
2016/04/18 14:13:59.000   54.039215438   37.537536067   259.1482   2   9   0.0095   0.0131   0.0216   0.0086  -0.0048   0.0027   0.00    1.2
2016/04/18 14:14:00.000   54.039185263   37.537515351   259.1914   2   9   0.0095   0.0131   0.0216   0.0086  -0.0048   0.0027   0.00    1.2
2016/04/18 14:14:01.000   54.039153148   37.537492944   259.3131   2   9   0.0097   0.0131   0.0219   0.0085  -0.0042   0.0004   0.00    1.1
2016/04/18 14:14:02.000   54.039123508   37.537471345   259.3472   2   9   0.0095   0.0132   0.0217   0.0085  -0.0046   0.0020   0.00    1.2
2016/04/18 14:14:03.000   54.039093950   37.537449144   259.4000   2   9   0.0095   0.0130   0.0217   0.0086  -0.0046   0.0020   0.00    1.2
2016/04/18 14:14:04.000   54.039060559   37.537424745   259.4711   2   9   0.0095   0.0131   0.0216   0.0086  -0.0046   0.0022   0.00    1.3
2016/04/18 14:14:05.000   54.039020113   37.537396197   259.5564   2   9   0.0095   0.0131   0.0216   0.0086  -0.0046   0.0022   0.00    1.5
2016/04/18 14:14:06.000   54.038973562   37.537364678   259.6939   2   9   0.0095   0.0131   0.0216   0.0086  -0.0046   0.0023   0.00    1.4
2016/04/18 14:14:07.000   54.038926270   37.537332456   259.8484   2   9   0.0095   0.0131   0.0216   0.0086  -0.0046   0.0024   0.00    1.5
2016/04/18 14:14:08.000   54.038881607   37.537302764   259.9892   2   9   0.0094   0.0131   0.0216   0.0086  -0.0046   0.0024   0.00    1.7
2016/04/18 14:14:09.000   54.038840883   37.537276663   260.2847   2   9   0.0095   0.0131   0.0216   0.0086  -0.0046   0.0024   0.00    1.6
2016/04/18 14:14:10.000   54.038804816   37.537253424   260.4969   2   9   0.0095   0.0131   0.0216   0.0086  -0.0046   0.0024   0.00    1.4
2016/04/18 14:14:11.000   54.038773654   37.537232191   260.5373   2   9   0.0094   0.0131   0.0216   0.0086  -0.0046   0.0024   0.00    1.4
2016/04/18 14:14:12.000   54.038747139   37.537214002   260.6373   2   9   0.0094   0.0131   0.0216   0.0086  -0.0046   0.0024   0.00    1.3
2016/04/18 14:14:13.000   54.038723981   37.537200065   260.6979   2   9   0.0117   0.0131   0.0239   0.0083  -0.0047   0.0079   0.00    1.0
2016/04/18 14:14:14.000   54.038707382   37.537189008   260.9087   2   9   0.0105   0.0131   0.0226   0.0084  -0.0048   0.0057   0.00    1.0
2016/04/18 14:14:15.000   54.038693108   37.537179790   261.1485   2   9   0.0102   0.0131   0.0222   0.0085  -0.0047   0.0048   0.00    1.0
2016/04/18 14:14:16.000   54.038680986   37.537172027   261.3411   2   9   0.0100   0.0131   0.0220   0.0085  -0.0047   0.0042   0.00    1.1
2016/04/18 14:14:17.000   54.038670158   37.537165164   261.5121   2   9   0.0099   0.0131   0.0219   0.0085  -0.0047   0.0039   0.00    1.1
2016/04/18 14:14:18.000   54.038662710   37.537160290   261.5892   2   9   0.0098   0.0131   0.0218   0.0086  -0.0047   0.0036   0.00    1.2
2016/04/18 14:14:19.000   54.038651012   37.537151191   261.5546   2   9   0.0098   0.0131   0.0218   0.0086  -0.0046   0.0033   0.00    1.0
2016/04/18 14:14:20.000   54.038628490   37.537135686   261.6384   2   9   0.0097   0.0132   0.0217   0.0086  -0.0046   0.0033   0.00    1.1
2016/04/18 14:14:21.000   54.038602153   37.537118477   261.9555   2   9   0.0096   0.0131   0.0217   0.0086  -0.0046   0.0031   0.00    1.1
2016/04/18 14:14:22.000   54.038581710   37.537104308   262.0496   2   9   0.0096   0.0131   0.0217   0.0086  -0.0046   0.0030   0.00    1.0
2016/04/18 14:14:23.000   54.038564119   37.537091961   262.1242   2   9   0.0095   0.0131   0.0217   0.0086  -0.0046   0.0030   0.00    1.1
2016/04/18 14:14:24.000   54.038544263   37.537078493   262.2942   2   9   0.0095   0.0131   0.0216   0.0086  -0.0046   0.0029   0.00    1.0
2016/04/18 14:14:25.000   54.038520641   37.537061837   262.3500   2   8   0.0097   0.0135   0.0232   0.0084   0.0020   0.0005   0.00    1.1
2016/04/18 14:14:26.000   54.038499854   37.537047361   262.4609   2   9   0.0096   0.0134   0.0227   0.0085  -0.0021   0.0021   0.00    1.0
2016/04/18 14:14:27.000   54.038480364   37.537033226   262.5283   2   9   0.0095   0.0133   0.0223   0.0085  -0.0035   0.0023   0.00    1.1
2016/04/18 14:14:28.000   54.038459611   37.537018799   262.6581   2   9   0.0096   0.0132   0.0221   0.0085  -0.0038   0.0022   0.00    1.2
2016/04/18 14:14:29.000   54.038437749   37.537003008   262.8208   2   9   0.0095   0.0132   0.0220   0.0086  -0.0039   0.0022   0.00    1.0
2016/04/18 14:14:30.000   54.038415412   37.536986711   262.8849   2   9   0.0094   0.0132   0.0220   0.0086  -0.0041   0.0024   0.00    1.2
2016/04/18 14:14:31.000   54.038393049   37.536973463   263.4184   2   9   0.0096   0.0132   0.0226   0.0084  -0.0031  -0.0025   0.00    1.1
2016/04/18 14:14:32.000   54.038372600   37.536959249   263.5699   2   9   0.0096   0.0132   0.0224   0.0084  -0.0034  -0.0015   0.00    1.0
2016/04/18 14:14:33.000   54.038351640   37.536944427   263.7447   2   9   0.0094   0.0132   0.0223   0.0085  -0.0035  -0.0010   0.00    1.2
2016/04/18 14:14:34.000   54.038331213   37.536930002   263.8743   2   9   0.0095   0.0132   0.0223   0.0085  -0.0036  -0.0008   0.00    1.2
2016/04/18 14:14:35.000   54.038311531   37.536916328   264.0456   2   9   0.0095   0.0131   0.0223   0.0085  -0.0037  -0.0002   0.00    1.0
2016/04/18 14:14:36.000   54.038291992   37.536903335   264.2672   2   8   0.0096   0.0134   0.0223   0.0083  -0.0041   0.0015   0.00    1.1
2016/04/18 14:14:37.000   54.038271782   37.536887488   264.2768   2   9   0.0096   0.0136   0.0228   0.0084  -0.0024   0.0017   0.00    1.1
2016/04/18 14:14:38.000   54.038250096   37.536870398   264.4143   2   9   0.0095   0.0133   0.0225   0.0084  -0.0032   0.0009   0.00    1.0
2016/04/18 14:14:39.000   54.038226573   37.536852373   264.5553   2   9   0.0095   0.0133   0.0224   0.0084  -0.0034   0.0010   0.00    1.0
2016/04/18 14:14:40.000   54.038204264   37.536834569   264.6703   2   9   0.0095   0.0132   0.0223   0.0085  -0.0035   0.0009   0.00    1.0
2016/04/18 14:14:41.000   54.038185661   37.536819488   264.7117   2   9   0.0095   0.0133   0.0223   0.0084  -0.0036   0.0008   0.00    1.0
2016/04/18 14:14:42.000   54.038170162   37.536805847   264.8820   2   9   0.0095   0.0132   0.0223   0.0085  -0.0036   0.0005   0.00    1.0
2016/04/18 14:14:43.000   54.038153456   37.536792832   265.7476   2   9   0.0110   0.0135   0.0252   0.0082  -0.0016  -0.0080   0.00    1.1
2016/04/18 14:14:44.000   54.038139041   37.536778654   265.9374   2   9   0.0103   0.0133   0.0240   0.0083  -0.0024  -0.0061   0.00    1.0
2016/04/18 14:14:45.000   54.038122113   37.536763818   265.7383   2   8   0.0120   0.0133   0.0260   0.0080  -0.0038   0.0066   0.00    1.2
2016/04/18 14:14:46.000   54.038114946   37.536744736   266.7946   2   9   0.0098   0.0133   0.0236   0.0084  -0.0026  -0.0047   0.00    1.2
2016/04/18 14:14:47.000   54.038103851   37.536722399   266.9870   2   9   0.0099   0.0133   0.0235   0.0084  -0.0029  -0.0044   0.00    1.2
2016/04/18 14:14:48.000   54.038095222   37.536696741   267.1605   2   9   0.0097   0.0133   0.0234   0.0084  -0.0029  -0.0041   0.00    1.0
2016/04/18 14:14:49.000   54.038089060   37.536668390   267.3941   2   9   0.0097   0.0132   0.0233   0.0084  -0.0029  -0.0039   0.00    1.1
2016/04/18 14:14:50.000   54.038084877   37.536641158   267.5654   2   9   0.0095   0.0132   0.0233   0.0084  -0.0029  -0.0038   0.00    1.1
2016/04/18 14:14:51.000   54.038082950   37.536622875   267.6732   2   9   0.0096   0.0132   0.0233   0.0084  -0.0029  -0.0036   0.00    1.1
2016/04/18 14:14:52.000   54.038081704   37.536608147   267.7470   2   9   0.0096   0.0132   0.0233   0.0084  -0.0029  -0.0034   0.00    1.1
2016/04/18 14:14:53.000   54.038081065   37.536589378   267.8337   2   9   0.0095   0.0132   0.0233   0.0084  -0.0030  -0.0033   0.00    1.1
2016/04/18 14:14:54.000   54.038080510   37.536570702   267.9432   2   9   0.0095   0.0131   0.0233   0.0084  -0.0029  -0.0032   0.00    1.4
2016/04/18 14:14:55.000   54.038075789   37.536555623   267.2886   2   9   0.0117   0.0132   0.0254   0.0082  -0.0039   0.0076   0.00    1.0
2016/04/18 14:14:56.000   54.038076530   37.536537732   267.3879   2   9   0.0106   0.0132   0.0244   0.0082  -0.0035   0.0050   0.00    1.0
2016/04/18 14:14:57.000   54.038077758   37.536517588   267.4872   2   9   0.0102   0.0132   0.0241   0.0083  -0.0034   0.0040   0.00    1.0
2016/04/18 14:14:58.000   54.038079641   37.536495468   267.5713   2   9   0.0100   0.0132   0.0240   0.0084  -0.0034   0.0032   0.00    1.1
2016/04/18 14:14:59.000   54.038082004   37.536473558   267.6666   2   9   0.0099   0.0132   0.0239   0.0084  -0.0033   0.0026   0.00    1.4
2016/04/18 14:15:00.000   54.038084512   37.536454005   267.7434   2   9   0.0097   0.0132   0.0238   0.0084  -0.0032   0.0023   0.00    1.1
2016/04/18 14:15:01.000   54.038086956   37.536435758   267.8204   2   9   0.0097   0.0132   0.0238   0.0084  -0.0033   0.0021   0.00    1.1
2016/04/18 14:15:02.000   54.038089887   37.536416766   267.8972   2   9   0.0097   0.0132   0.0237   0.0084  -0.0032   0.0017   0.00    1.1
2016/04/18 14:15:03.000   54.038093203   37.536396159   267.9689   2   9   0.0096   0.0132   0.0238   0.0084  -0.0032   0.0014   0.00    1.1
2016/04/18 14:15:04.000   54.038096860   37.536374737   268.0580   2   9   0.0096   0.0132   0.0237   0.0085  -0.0032   0.0012   0.00    1.1
2016/04/18 14:15:05.000   54.038100893   37.536352183   268.1363   2   9   0.0096   0.0132   0.0237   0.0084  -0.0031   0.0011   0.00    1.1
2016/04/18 14:15:06.000   54.038105230   37.536329080   268.2276   2   9   0.0096   0.0131   0.0237   0.0084  -0.0031   0.0010   0.00    1.1
2016/04/18 14:15:07.000   54.038109682   37.536306858   268.3097   2   9   0.0094   0.0131   0.0237   0.0085  -0.0030   0.0010   0.00    1.0
2016/04/18 14:15:08.000   54.038113810   37.536286122   268.4057   2   9   0.0094   0.0132   0.0237   0.0085  -0.0031   0.0007   0.00    1.0
2016/04/18 14:15:09.000   54.038117883   37.536265885   268.4903   2   9   0.0095   0.0132   0.0237   0.0084  -0.0031   0.0008   0.00    1.0
2016/04/18 14:15:10.000   54.038121917   37.536245803   268.6082   2   9   0.0094   0.0131   0.0237   0.0085  -0.0031  -0.0008   0.00    1.0
2016/04/18 14:15:11.000   54.038125866   37.536225926   268.7106   2   9   0.0095   0.0132   0.0237   0.0084  -0.0032   0.0003   0.00    1.1
2016/04/18 14:15:12.000   54.038130178   37.536205020   268.8081   2   9   0.0095   0.0131   0.0237   0.0085  -0.0031  -0.0004   0.00    1.1
2016/04/18 14:15:13.000   54.038135138   37.536181233   268.8952   2   9   0.0094   0.0131   0.0237   0.0086  -0.0031  -0.0007   0.00    1.1
2016/04/18 14:15:14.000   54.038140906   37.536154545   268.9859   2   9   0.0094   0.0132   0.0237   0.0085  -0.0031  -0.0004   0.00    1.2
2016/04/18 14:15:15.000   54.038146651   37.536128800   269.0839   2   9   0.0094   0.0132   0.0237   0.0085  -0.0031  -0.0006   0.00    1.2
2016/04/18 14:15:16.000   54.038151569   37.536107362   269.1280   2   9   0.0094   0.0132   0.0237   0.0084  -0.0030   0.0004   0.00    1.2
2016/04/18 14:15:17.000   54.038156539   37.536086551   269.1832   2   9   0.0094   0.0132   0.0237   0.0084  -0.0031  -0.0007   0.00    1.2
2016/04/18 14:15:18.000   54.038161594   37.536065129   269.2391   2   9   0.0093   0.0132   0.0237   0.0085  -0.0030  -0.0009   0.00    1.2
2016/04/18 14:15:19.000   54.038167497   37.536040832   269.2575   2   9   0.0094   0.0132   0.0238   0.0085  -0.0030  -0.0010   0.00    1.1
2016/04/18 14:15:20.000   54.038174535   37.536012040   269.3074   2   9   0.0094   0.0131   0.0238   0.0085  -0.0030  -0.0011   0.00    1.1
2016/04/18 14:15:21.000   54.038181759   37.535981578   269.3405   2   9   0.0094   0.0131   0.0238   0.0086  -0.0030  -0.0012   0.00    1.1
